header: 
  seq: 0
  stamp: 
    secs: 1522343900
    nsecs: 856849562
  frame_id: map
pose: 
  pose: 
    position: 
      x: -2.4098443985
      y: 2.9629099369
      z: 0.0
    orientation: 
      x: 0.0
      y: 0.0
      z: -0.713371253953
      w: 0.700786311248
  covariance: [0.25, 0.0, 0.0, 0.0, 0.0, 0.0, 0.0, 0.25, 0.0, 0.0, 0.0, 0.0, 0.0, 0.0, 0.0, 0.0, 0.0, 0.0, 0.0, 0.0, 0.0, 0.0, 0.0, 0.0, 0.0, 0.0, 0.0, 0.0, 0.0, 0.0, 0.0, 0.0, 0.0, 0.0, 0.0, 0.06853891945200942]
---
header: 
  seq: 1
  stamp: 
    secs: 1522343916
    nsecs: 119603140
  frame_id: map
pose: 
  pose: 
    position: 
      x: -2.41705656052
      y: 1.00516152382
      z: 0.0
    orientation: 
      x: 0.0
      y: 0.0
      z: -0.710566681734
      w: 0.703629867764
  covariance: [0.25, 0.0, 0.0, 0.0, 0.0, 0.0, 0.0, 0.25, 0.0, 0.0, 0.0, 0.0, 0.0, 0.0, 0.0, 0.0, 0.0, 0.0, 0.0, 0.0, 0.0, 0.0, 0.0, 0.0, 0.0, 0.0, 0.0, 0.0, 0.0, 0.0, 0.0, 0.0, 0.0, 0.0, 0.0, 0.06853891945200942]
---
header: 
  seq: 2
  stamp: 
    secs: 1522343929
    nsecs: 752522168
  frame_id: map
pose: 
  pose: 
    position: 
      x: -2.51861333847
      y: -1.02190923691
      z: 0.0
    orientation: 
      x: 0.0
      y: 0.0
      z: -0.712760355217
      w: 0.701407638988
  covariance: [0.25, 0.0, 0.0, 0.0, 0.0, 0.0, 0.0, 0.25, 0.0, 0.0, 0.0, 0.0, 0.0, 0.0, 0.0, 0.0, 0.0, 0.0, 0.0, 0.0, 0.0, 0.0, 0.0, 0.0, 0.0, 0.0, 0.0, 0.0, 0.0, 0.0, 0.0, 0.0, 0.0, 0.0, 0.0, 0.06853891945200942]
---
header: 
  seq: 3
  stamp: 
    secs: 1522343940
    nsecs: 963711897
  frame_id: map
pose: 
  pose: 
    position: 
      x: -2.21153736115
      y: -1.5652077198
      z: 0.0
    orientation: 
      x: 0.0
      y: 0.0
      z: 0.00722444764113
      w: 0.999973903338
  covariance: [0.25, 0.0, 0.0, 0.0, 0.0, 0.0, 0.0, 0.25, 0.0, 0.0, 0.0, 0.0, 0.0, 0.0, 0.0, 0.0, 0.0, 0.0, 0.0, 0.0, 0.0, 0.0, 0.0, 0.0, 0.0, 0.0, 0.0, 0.0, 0.0, 0.0, 0.0, 0.0, 0.0, 0.0, 0.0, 0.06853891945200942]
---
header: 
  seq: 4
  stamp: 
    secs: 1522343949
    nsecs: 581968573
  frame_id: map
pose: 
  pose: 
    position: 
      x: -0.0192983150482
      y: -1.65524935722
      z: 0.0
    orientation: 
      x: 0.0
      y: 0.0
      z: 0.00120135202427
      w: 0.999999278376
  covariance: [0.25, 0.0, 0.0, 0.0, 0.0, 0.0, 0.0, 0.25, 0.0, 0.0, 0.0, 0.0, 0.0, 0.0, 0.0, 0.0, 0.0, 0.0, 0.0, 0.0, 0.0, 0.0, 0.0, 0.0, 0.0, 0.0, 0.0, 0.0, 0.0, 0.0, 0.0, 0.0, 0.0, 0.0, 0.0, 0.06853891945200942]
---
header: 
  seq: 5
  stamp: 
    secs: 1522343958
    nsecs: 936978072
  frame_id: map
pose: 
  pose: 
    position: 
      x: 1.32005691528
      y: -1.12467670441
      z: 0.0
    orientation: 
      x: 0.0
      y: 0.0
      z: -0.0768131644277
      w: 0.997045504363
  covariance: [0.25, 0.0, 0.0, 0.0, 0.0, 0.0, 0.0, 0.25, 0.0, 0.0, 0.0, 0.0, 0.0, 0.0, 0.0, 0.0, 0.0, 0.0, 0.0, 0.0, 0.0, 0.0, 0.0, 0.0, 0.0, 0.0, 0.0, 0.0, 0.0, 0.0, 0.0, 0.0, 0.0, 0.0, 0.0, 0.06853891945200942]
---
header: 
  seq: 6
  stamp: 
    secs: 1522343974
    nsecs: 158547456
  frame_id: map
pose: 
  pose: 
    position: 
      x: 3.39394044876
      y: -1.86863732338
      z: 0.0
    orientation: 
      x: 0.0
      y: 0.0
      z: 0.00151927788257
      w: 0.999998845897
  covariance: [0.25, 0.0, 0.0, 0.0, 0.0, 0.0, 0.0, 0.25, 0.0, 0.0, 0.0, 0.0, 0.0, 0.0, 0.0, 0.0, 0.0, 0.0, 0.0, 0.0, 0.0, 0.0, 0.0, 0.0, 0.0, 0.0, 0.0, 0.0, 0.0, 0.0, 0.0, 0.0, 0.0, 0.0, 0.0, 0.06853891945200942]
---
header: 
  seq: 7
  stamp: 
    secs: 1522343979
    nsecs: 568682245
  frame_id: map
pose: 
  pose: 
    position: 
      x: 5.12094926834
      y: -1.70167732239
      z: 0.0
    orientation: 
      x: 0.0
      y: 0.0
      z: -0.00664022341122
      w: 0.999977953473
  covariance: [0.25, 0.0, 0.0, 0.0, 0.0, 0.0, 0.0, 0.25, 0.0, 0.0, 0.0, 0.0, 0.0, 0.0, 0.0, 0.0, 0.0, 0.0, 0.0, 0.0, 0.0, 0.0, 0.0, 0.0, 0.0, 0.0, 0.0, 0.0, 0.0, 0.0, 0.0, 0.0, 0.0, 0.0, 0.0, 0.06853891945200942]
---
header: 
  seq: 8
  stamp: 
    secs: 1522343988
    nsecs: 618956087
  frame_id: map
pose: 
  pose: 
    position: 
      x: 6.94781541824
      y: -1.77671217918
      z: 0.0
    orientation: 
      x: 0.0
      y: 0.0
      z: -0.00329103742007
      w: 0.999994584522
  covariance: [0.25, 0.0, 0.0, 0.0, 0.0, 0.0, 0.0, 0.25, 0.0, 0.0, 0.0, 0.0, 0.0, 0.0, 0.0, 0.0, 0.0, 0.0, 0.0, 0.0, 0.0, 0.0, 0.0, 0.0, 0.0, 0.0, 0.0, 0.0, 0.0, 0.0, 0.0, 0.0, 0.0, 0.0, 0.0, 0.06853891945200942]
---
header: 
  seq: 9
  stamp: 
    secs: 1522344000
    nsecs: 917331353
  frame_id: map
pose: 
  pose: 
    position: 
      x: 7.94531917572
      y: -1.10400295258
      z: 0.0
    orientation: 
      x: 0.0
      y: 0.0
      z: 0.686409823069
      w: 0.727214930261
  covariance: [0.25, 0.0, 0.0, 0.0, 0.0, 0.0, 0.0, 0.25, 0.0, 0.0, 0.0, 0.0, 0.0, 0.0, 0.0, 0.0, 0.0, 0.0, 0.0, 0.0, 0.0, 0.0, 0.0, 0.0, 0.0, 0.0, 0.0, 0.0, 0.0, 0.0, 0.0, 0.0, 0.0, 0.0, 0.0, 0.06853891945200942]
---
header: 
  seq: 10
  stamp: 
    secs: 1522344006
    nsecs: 896413219
  frame_id: map
pose: 
  pose: 
    position: 
      x: 8.09117794037
      y: 0.665054798126
      z: 0.0
    orientation: 
      x: 0.0
      y: 0.0
      z: 0.703293837943
      w: 0.710899273815
  covariance: [0.25, 0.0, 0.0, 0.0, 0.0, 0.0, 0.0, 0.25, 0.0, 0.0, 0.0, 0.0, 0.0, 0.0, 0.0, 0.0, 0.0, 0.0, 0.0, 0.0, 0.0, 0.0, 0.0, 0.0, 0.0, 0.0, 0.0, 0.0, 0.0, 0.0, 0.0, 0.0, 0.0, 0.0, 0.0, 0.06853891945200942]
---
header: 
  seq: 11
  stamp: 
    secs: 1522344013
    nsecs: 128039962
  frame_id: map
pose: 
  pose: 
    position: 
      x: 8.05735015869
      y: 2.51469230652
      z: 0.0
    orientation: 
      x: 0.0
      y: 0.0
      z: -0.999338637288
      w: 0.0363632785119
  covariance: [0.25, 0.0, 0.0, 0.0, 0.0, 0.0, 0.0, 0.25, 0.0, 0.0, 0.0, 0.0, 0.0, 0.0, 0.0, 0.0, 0.0, 0.0, 0.0, 0.0, 0.0, 0.0, 0.0, 0.0, 0.0, 0.0, 0.0, 0.0, 0.0, 0.0, 0.0, 0.0, 0.0, 0.0, 0.0, 0.06853891945200942]
---
header: 
  seq: 12
  stamp: 
    secs: 1522344019
    nsecs:  54640809
  frame_id: map
pose: 
  pose: 
    position: 
      x: 6.03279066086
      y: 2.23185753822
      z: 0.0
    orientation: 
      x: 0.0
      y: 0.0
      z: 0.999996421112
      w: 0.00267539950155
  covariance: [0.25, 0.0, 0.0, 0.0, 0.0, 0.0, 0.0, 0.25, 0.0, 0.0, 0.0, 0.0, 0.0, 0.0, 0.0, 0.0, 0.0, 0.0, 0.0, 0.0, 0.0, 0.0, 0.0, 0.0, 0.0, 0.0, 0.0, 0.0, 0.0, 0.0, 0.0, 0.0, 0.0, 0.0, 0.0, 0.06853891945200942]
---
header: 
  seq: 13
  stamp: 
    secs: 1522344030
    nsecs: 483207448
  frame_id: map
pose: 
  pose: 
    position: 
      x: 3.86107063293
      y: 2.37595415115
      z: 0.0
    orientation: 
      x: 0.0
      y: 0.0
      z: 0.999789369041
      w: 0.0205235852791
  covariance: [0.25, 0.0, 0.0, 0.0, 0.0, 0.0, 0.0, 0.25, 0.0, 0.0, 0.0, 0.0, 0.0, 0.0, 0.0, 0.0, 0.0, 0.0, 0.0, 0.0, 0.0, 0.0, 0.0, 0.0, 0.0, 0.0, 0.0, 0.0, 0.0, 0.0, 0.0, 0.0, 0.0, 0.0, 0.0, 0.06853891945200942]
---
header: 
  seq: 14
  stamp: 
    secs: 1522344043
    nsecs: 538640801
  frame_id: map
pose: 
  pose: 
    position: 
      x: 1.98014903069
      y: 2.47150921822
      z: 0.0
    orientation: 
      x: 0.0
      y: 0.0
      z: 0.999994587499
      w: 0.00329013277446
  covariance: [0.25, 0.0, 0.0, 0.0, 0.0, 0.0, 0.0, 0.25, 0.0, 0.0, 0.0, 0.0, 0.0, 0.0, 0.0, 0.0, 0.0, 0.0, 0.0, 0.0, 0.0, 0.0, 0.0, 0.0, 0.0, 0.0, 0.0, 0.0, 0.0, 0.0, 0.0, 0.0, 0.0, 0.0, 0.0, 0.06853891945200942]
---
header: 
  seq: 15
  stamp: 
    secs: 1522344050
    nsecs: 617439325
  frame_id: map
pose: 
  pose: 
    position: 
      x: 0.450833797455
      y: 2.66241931915
      z: 0.0
    orientation: 
      x: 0.0
      y: 0.0
      z: 0.999997970481
      w: 0.00201470465034
  covariance: [0.25, 0.0, 0.0, 0.0, 0.0, 0.0, 0.0, 0.25, 0.0, 0.0, 0.0, 0.0, 0.0, 0.0, 0.0, 0.0, 0.0, 0.0, 0.0, 0.0, 0.0, 0.0, 0.0, 0.0, 0.0, 0.0, 0.0, 0.0, 0.0, 0.0, 0.0, 0.0, 0.0, 0.0, 0.0, 0.06853891945200942]
---
